
[
  { "id": 1, "name": "New York", "country": "USA", "latitude": 40.71, "longitude": -74.01 },
  { "id": 2, "name": "London", "country": "UK", "latitude": 51.51, "longitude": -0.13 },
  { "id": 3, "name": "Paris", "country": "France", "latitude": 48.85, "longitude": 2.35 },
  { "id": 4, "name": "Tokyo", "country": "Japan", "latitude": 35.69, "longitude": 139.69 },
  { "id": 5, "name": "Sydney", "country": "Australia", "latitude": -33.87, "longitude": 151.21 },
  { "id": 6, "name": "Cairo", "country": "Egypt", "latitude": 30.05, "longitude": 31.23 },
  { "id": 7, "name": "Rio de Janeiro", "country": "Brazil", "latitude": -22.91, "longitude": -43.17 },
  { "id": 8, "name": "Moscow", "country": "Russia", "latitude": 55.75, "longitude": 37.62 },
  { "id": 9, "name": "Beijing", "country": "China", "latitude": 39.90, "longitude": 116.40 },
  { "id": 10, "name": "Mumbai", "country": "India", "latitude": 19.08, "longitude": 72.88 },
  { "id": 11, "name": "Cape Town", "country": "South Africa", "latitude": -33.92, "longitude": 18.42 },
  { "id": 12, "name": "Buenos Aires", "country": "Argentina", "latitude": -34.60, "longitude": -58.38 },
  { "id": 13, "name": "Berlin", "country": "Germany", "latitude": 52.52, "longitude": 13.41 },
  { "id": 14, "name": "Toronto", "country": "Canada", "latitude": 43.65, "longitude": -79.38 },
  { "id": 15, "name": "Mexico City", "country": "Mexico", "latitude": 19.43, "longitude": -99.13 },
  { "id": 16, "name": "Seoul", "country": "South Korea", "latitude": 37.57, "longitude": 126.98 },
  { "id": 17, "name": "Lagos", "country": "Nigeria", "latitude": 6.52, "longitude": 3.38 },
  { "id": 18, "name": "Singapore", "country": "Singapore", "latitude": 1.35, "longitude": 103.82 },
  { "id": 19, "name": "Rome", "country": "Italy", "latitude": 41.90, "longitude": 12.50 },
  { "id": 20, "name": "Istanbul", "country": "Turkey", "latitude": 41.01, "longitude": 28.98 }
]
